{"Outbound ARG": {"ACA0": {"Plant Name": "Capdeville", "Latitude": -32.7390752148649, "Longitude": -68.8428907163193}, "APV0": {"Plant Name": "Puesto Viejo", "Latitude": -24.4881572876495, "Longitude": -64.9586769314705}, "AMG0": {"Plant Name": "Malague\u00f1o", "Latitude": -31.4451134640811, "Longitude": -64.3684925782493}, "ACM0": {"Plant Name": "Campana", "Latitude": -34.1531038633808, "Longitude": -59.0197774174618}}, "Outbound MEX": {"ARA0": {"Plant Name": "Ramos Arizpe - Planta Cemento", "Latitude": 25.6085, "Longitude": -100.86183}, "BDMZ": {"Plant Name": "Cd. Mazatlan", "Latitude": 23.23701, "Longitude": -106.3986}, "ATC0": {"Plant Name": "Tecoman - Planta Cemento", "Latitude": 18.98292, "Longitude": -103.8689}, "AME0": {"Plant Name": "M\u00e9rida - Estaci\u00f3n de Molienda", "Latitude": 20.89094, "Longitude": -89.73981}, "AAP0": {"Plant Name": "Apaxco - Planta Cemento", "Latitude": 19.9724, "Longitude": -99.17977}, "BDPA": {"Plant Name": "Cd. La Paz", "Latitude": 24.06243, "Longitude": -110.31888}, "BDES": {"Plant Name": "Cd. El Salto", "Latitude": 20.56938, "Longitude": -103.28785}, "AHR0": {"Plant Name": "Hermosillo - Planta Cemento", "Latitude": 29.04185, "Longitude": -110.70985}, "AAC0": {"Plant Name": "Acapulco - Planta Cemento", "Latitude": 16.88566, "Longitude": -99.83198}, "BTRE": {"Plant Name": "Cd. Reyes", "Latitude": 19.35502, "Longitude": -98.96333}, "BTMX": {"Plant Name": "Cd. Mexicali", "Latitude": 32.566017, "Longitude": -115.363389}, "BDCH": {"Plant Name": "Cd. Chihuahua", "Latitude": 28.66158, "Longitude": -106.07864}, "BTVA": {"Plant Name": "Cd. Vallejo", "Latitude": 19.4962586999769, "Longitude": -99.1692861281156}, "BTIR": {"Plant Name": "Cd. Irapuato", "Latitude": 20.61867, "Longitude": -101.26064}, "AOZ0": {"Plant Name": "Orizaba - Planta Cemento", "Latitude": 18.86208, "Longitude": -97.04765}, "AMP0": {"Plant Name": "Macuspana - Planta Cemento", "Latitude": 17.65419, "Longitude": -92.44206}, "BTMO": {"Plant Name": "Cd. Escobedo", "Latitude": 25.84694, "Longitude": -100.29353}, "BTCL": {"Plant Name": "Cd. Culiacan", "Latitude": 24.77493, "Longitude": -107.49011}, "BMPV": {"Plant Name": "Bodega Comer. Puerto Vallarta", "Latitude": 20.7087, "Longitude": -105.20909}, "BMRY": {"Plant Name": "Bodega Reynosa", "Latitude": 26.048364, "Longitude": -98.30032}, "BTZA": {"Plant Name": "Cd. Zapopan", "Latitude": 20.70467, "Longitude": -103.45946}, "BDCJ": {"Plant Name": "Cd. Juarez", "Latitude": 31.73058, "Longitude": -106.47915}, "BTPU": {"Plant Name": "Cd. Puebla", "Latitude": 19.08253, "Longitude": -98.19898}, "BDVH": {"Plant Name": "Cd. Villahermosa", "Latitude": 18.02501, "Longitude": -92.90977}, "BDAG": {"Plant Name": "Cd. Aguascalientes", "Latitude": 22.03324, "Longitude": -102.26559}, "BTSL": {"Plant Name": "Cd. San Luis", "Latitude": 22.2120479, "Longitude": -100.9844403}}}