{"Outbound ARG": {"ACA0": {"Plant Name": "Capdeville", "Plant Latitude": -32.7390752148649, "Plant Longitude": -68.8428907163193}, "APV0": {"Plant Name": "Puesto Viejo", "Plant Latitude": -24.4881572876495, "Plant Longitude": -64.9586769314705}, "AMG0": {"Plant Name": "Malague\u00f1o", "Plant Latitude": -31.4451134640811, "Plant Longitude": -64.3684925782493}, "ACM0": {"Plant Name": "Campana", "Plant Latitude": -34.1531038633808, "Plant Longitude": -59.0197774174618}}, "Outbound MEX": {"ARA0": {"Plant Name": "Ramos Arizpe - Planta Cemento", "Plant Latitude": 25.6085, "Plant Longitude": -100.86183}, "BDMZ": {"Plant Name": "Cd. Mazatlan", "Plant Latitude": 23.23701, "Plant Longitude": -106.3986}, "ATC0": {"Plant Name": "Tecoman - Planta Cemento", "Plant Latitude": 18.98292, "Plant Longitude": -103.8689}, "AME0": {"Plant Name": "M\u00e9rida - Estaci\u00f3n de Molienda", "Plant Latitude": 20.89094, "Plant Longitude": -89.73981}, "AAP0": {"Plant Name": "Apaxco - Planta Cemento", "Plant Latitude": 19.9724, "Plant Longitude": -99.17977}, "BDPA": {"Plant Name": "Cd. La Paz", "Plant Latitude": 24.06243, "Plant Longitude": -110.31888}, "BDES": {"Plant Name": "Cd. El Salto", "Plant Latitude": 20.56938, "Plant Longitude": -103.28785}, "AHR0": {"Plant Name": "Hermosillo - Planta Cemento", "Plant Latitude": 29.04185, "Plant Longitude": -110.70985}, "AAC0": {"Plant Name": "Acapulco - Planta Cemento", "Plant Latitude": 16.88566, "Plant Longitude": -99.83198}, "BTRE": {"Plant Name": "Cd. Reyes", "Plant Latitude": 19.35502, "Plant Longitude": -98.96333}, "BTMX": {"Plant Name": "Cd. Mexicali", "Plant Latitude": 32.566017, "Plant Longitude": -115.363389}, "BDCH": {"Plant Name": "Cd. Chihuahua", "Plant Latitude": 28.66158, "Plant Longitude": -106.07864}, "BTVA": {"Plant Name": "Cd. Vallejo", "Plant Latitude": 19.4962586999769, "Plant Longitude": -99.1692861281156}, "BTIR": {"Plant Name": "Cd. Irapuato", "Plant Latitude": 20.61867, "Plant Longitude": -101.26064}, "AOZ0": {"Plant Name": "Orizaba - Planta Cemento", "Plant Latitude": 18.86208, "Plant Longitude": -97.04765}, "AMP0": {"Plant Name": "Macuspana - Planta Cemento", "Plant Latitude": 17.65419, "Plant Longitude": -92.44206}, "BTMO": {"Plant Name": "Cd. Escobedo", "Plant Latitude": 25.84694, "Plant Longitude": -100.29353}, "BTCL": {"Plant Name": "Cd. Culiacan", "Plant Latitude": 24.77493, "Plant Longitude": -107.49011}, "BMPV": {"Plant Name": "Bodega Comer. Puerto Vallarta", "Plant Latitude": 20.7087, "Plant Longitude": -105.20909}, "BMRY": {"Plant Name": "Bodega Reynosa", "Plant Latitude": 26.048364, "Plant Longitude": -98.30032}, "BTZA": {"Plant Name": "Cd. Zapopan", "Plant Latitude": 20.70467, "Plant Longitude": -103.45946}, "BDCJ": {"Plant Name": "Cd. Juarez", "Plant Latitude": 31.73058, "Plant Longitude": -106.47915}, "BTPU": {"Plant Name": "Cd. Puebla", "Plant Latitude": 19.08253, "Plant Longitude": -98.19898}, "BDVH": {"Plant Name": "Cd. Villahermosa", "Plant Latitude": 18.02501, "Plant Longitude": -92.90977}, "BDAG": {"Plant Name": "Cd. Aguascalientes", "Plant Latitude": 22.03324, "Plant Longitude": -102.26559}, "BTSL": {"Plant Name": "Cd. San Luis", "Plant Latitude": 22.2120479, "Plant Longitude": -100.9844403}}}