{"Outbound ARG": {"ACA0": {"Plant Name": "Capdeville", "Plant Latitude": -32.7390752148649, "Plant Longitude": -68.8428907163193}, "APV0": {"Plant Name": "Puesto Viejo", "Plant Latitude": -24.4881572876495, "Plant Longitude": -64.9586769314705}, "AMG0": {"Plant Name": "Malague\u00f1o", "Plant Latitude": -31.4451134640811, "Plant Longitude": -64.3684925782493}, "ACM0": {"Plant Name": "Campana", "Plant Latitude": -34.1531038633808, "Plant Longitude": -59.0197774174618}}, "Outbound MEX": {"Ramos Arizpe - Planta Cemento": {"Plant Name": "ARA0", "Plant Latitude": 25.6085, "Plant Longitude": -100.86183}, "Cd. Mazatlan": {"Plant Name": "BDMZ", "Plant Latitude": 23.23701, "Plant Longitude": -106.3986}, "Tecoman - Planta Cemento": {"Plant Name": "ATC0", "Plant Latitude": 18.98292, "Plant Longitude": -103.8689}, "M\u00e9rida - Estaci\u00f3n de Molienda": {"Plant Name": "AME0", "Plant Latitude": 20.89094, "Plant Longitude": -89.73981}, "Apaxco - Planta Cemento": {"Plant Name": "AAP0", "Plant Latitude": 19.9724, "Plant Longitude": -99.17977}, "Cd. La Paz": {"Plant Name": "BDPA", "Plant Latitude": 24.06243, "Plant Longitude": -110.31888}, "Cd. El Salto": {"Plant Name": "BDES", "Plant Latitude": 20.56938, "Plant Longitude": -103.28785}, "Hermosillo - Planta Cemento": {"Plant Name": "AHR0", "Plant Latitude": 29.04185, "Plant Longitude": -110.70985}, "Acapulco - Planta Cemento": {"Plant Name": "AAC0", "Plant Latitude": 16.88566, "Plant Longitude": -99.83198}, "Cd. Reyes": {"Plant Name": "BTRE", "Plant Latitude": 19.35502, "Plant Longitude": -98.96333}, "Cd. Mexicali": {"Plant Name": "BTMX", "Plant Latitude": 32.566017, "Plant Longitude": -115.363389}, "Cd. Chihuahua": {"Plant Name": "BDCH", "Plant Latitude": 28.66158, "Plant Longitude": -106.07864}, "Cd. Vallejo": {"Plant Name": "BTVA", "Plant Latitude": 19.4962586999769, "Plant Longitude": -99.1692861281156}, "Cd. Irapuato": {"Plant Name": "BTIR", "Plant Latitude": 20.61867, "Plant Longitude": -101.26064}, "Orizaba - Planta Cemento": {"Plant Name": "AOZ0", "Plant Latitude": 18.86208, "Plant Longitude": -97.04765}, "Macuspana - Planta Cemento": {"Plant Name": "AMP0", "Plant Latitude": 17.65419, "Plant Longitude": -92.44206}, "Cd. Escobedo": {"Plant Name": "BTMO", "Plant Latitude": 25.84694, "Plant Longitude": -100.29353}, "Cd. Culiacan": {"Plant Name": "BTCL", "Plant Latitude": 24.77493, "Plant Longitude": -107.49011}, "Bodega Comer. Puerto Vallarta": {"Plant Name": "BMPV", "Plant Latitude": 20.7087, "Plant Longitude": -105.20909}, "Bodega Reynosa": {"Plant Name": "BMRY", "Plant Latitude": 26.048364, "Plant Longitude": -98.30032}, "Cd. Zapopan": {"Plant Name": "BTZA", "Plant Latitude": 20.70467, "Plant Longitude": -103.45946}, "Cd. Juarez": {"Plant Name": "BDCJ", "Plant Latitude": 31.73058, "Plant Longitude": -106.47915}, "Cd. Puebla": {"Plant Name": "BTPU", "Plant Latitude": 19.08253, "Plant Longitude": -98.19898}, "Cd. Villahermosa": {"Plant Name": "BDVH", "Plant Latitude": 18.02501, "Plant Longitude": -92.90977}, "Cd. Aguascalientes": {"Plant Name": "BDAG", "Plant Latitude": 22.03324, "Plant Longitude": -102.26559}, "Cd. San Luis": {"Plant Name": "BTSL", "Plant Latitude": 22.2120479, "Plant Longitude": -100.9844403}}}